% program   : RTKLIB ver.2.4.3
% inp file  : C:\Users\gterg\Documents\testScintPark\rinex\raw_obs_SB02_20220432300.obs
% inp file  : C:\Users\gterg\Documents\testScintPark\rinex\PPTE043_23-24.obs
% inp file  : C:\Users\gterg\Documents\testScintPark\rinex\raw_obs_SB02_20220432300.nav
% obs start : 2022/02/12 23:00:23.0 GPST (week2196 601223.0s)
% obs end   : 2022/02/13 00:00:14.0 GPST (week2197     14.0s)
% pos mode  : Static
% freqs     : L1+2
% solution  : Forward
% elev mask : 10.0 deg
% dynamics  : off
% tidecorr  : off
% ionos opt : Broadcast
% tropo opt : Saastamoinen
% ephemeris : Broadcast
% navi sys  : GPS Galileo
% gter_mdp  : OFF
% gter_ionom: Park
% amb res   : Continuous
% val thres : 3.0
% antenna1  :                       ( 0.0000  0.0000  0.0000)
% antenna2  :                       ( 0.0000  0.0000  0.0000)
% ref pos   :-22.119942223 -51.408511448  428.5623
%
% (lat/lon/height=WGS84/ellipsoidal,Q=1:fix,2:float,3:sbas,4:dgps,5:single,6:ppp,ns=# of satellites)
%  GPST                 latitude(deg) longitude(deg)  height(m)   Q  ns   sdn(m)   sde(m)   sdu(m)  sdne(m)  sdeu(m)  sdun(m) age(s)  ratio gterCor
2022/02/12 23:00:23.00  -22.122192853  -51.407080103   437.7618   5   0   0.4802   0.4488   1.3841   0.1847  -0.3709   0.2189  -0.00    0.0      2
2022/02/12 23:00:24.00  -22.122192506  -51.407079863   437.8402   5   0   0.3408   0.3185   0.9828   0.1309  -0.2626   0.1565  -0.00    0.0      2
2022/02/12 23:00:25.00  -22.122192675  -51.407079965   437.9895   5   0   0.2786   0.2604   0.8035   0.1070  -0.2144   0.1283  -0.00    0.0      2
2022/02/12 23:00:26.00  -22.122192573  -51.407079720   438.0217   5   0   0.2414   0.2256   0.6961   0.0926  -0.1856   0.1115  -0.00    0.0      2
2022/02/12 23:00:27.00  -22.122192566  -51.407079653   438.1003   5   0   0.2160   0.2019   0.6227   0.0828  -0.1660   0.1000  -0.00    0.0      2
2022/02/12 23:00:28.00  -22.122192548  -51.407079651   438.0932   5   0   0.1972   0.1843   0.5684   0.0756  -0.1514   0.0916  -0.00    0.0      2
2022/02/12 23:00:29.00  -22.122192573  -51.407079581   438.0428   5   0   0.1825   0.1707   0.5260   0.0699  -0.1401   0.0850  -0.00    0.0      2
2022/02/12 23:00:30.00  -22.122192604  -51.407079562   438.0349   5   0   0.1707   0.1597   0.4919   0.0654  -0.1310   0.0798  -0.00    0.0      2
2022/02/12 23:00:31.00  -22.122192583  -51.407079436   438.0158   5   0   0.1609   0.1505   0.4635   0.0616  -0.1234   0.0755  -0.00    0.0      2
2022/02/12 23:00:32.00  -22.122192661  -51.407079407   438.0287   5   0   0.1526   0.1428   0.4394   0.0584  -0.1170   0.0719  -0.00    0.0      2
2022/02/12 23:00:33.00  -22.122192694  -51.407079428   438.0498   5   0   0.1455   0.1361   0.4187   0.0556  -0.1114   0.0688  -0.00    0.0      2
2022/02/12 23:00:34.00  -22.122192733  -51.407079558   438.0834   5   0   0.1392   0.1303   0.4006   0.0532  -0.1066   0.0661  -0.00    0.0      2
2022/02/12 23:00:35.00  -22.122192755  -51.407079573   438.0819   5   0   0.1337   0.1252   0.3845   0.0510  -0.1023   0.0638  -0.00    0.0      2
2022/02/12 23:00:36.00  -22.122192776  -51.407079507   438.0837   5   0   0.1288   0.1206   0.3702   0.0491  -0.0984   0.0618  -0.00    0.0      2
2022/02/12 23:00:37.00  -22.122192855  -51.407079432   438.0902   5   0   0.1244   0.1165   0.3573   0.0474  -0.0950   0.0600  -0.00    0.0      2
2022/02/12 23:00:38.00  -22.122192924  -51.407079362   438.0984   5   0   0.1204   0.1128   0.3456   0.0458  -0.0918   0.0584  -0.00    0.0      2
2022/02/12 23:00:39.00  -22.122192955  -51.407079286   438.0876   5   0   0.1167   0.1094   0.3349   0.0443  -0.0890   0.0569  -0.00    0.0      2
2022/02/12 23:00:40.00  -22.122192943  -51.407079210   438.0616   5   0   0.1134   0.1063   0.3251   0.0430  -0.0864   0.0556  -0.00    0.0      2
2022/02/12 23:00:41.00  -22.122192990  -51.407079179   438.0430   5   0   0.1103   0.1035   0.3160   0.0418  -0.0839   0.0544  -0.00    0.0      2
2022/02/12 23:00:42.00  -22.122193068  -51.407079159   438.0240   5   0   0.1074   0.1008   0.3076   0.0406  -0.0817   0.0534  -0.00    0.0      2
2022/02/12 23:00:43.00  -22.122193120  -51.407079126   438.0095   5   0   0.1048   0.0984   0.2998   0.0396  -0.0796   0.0524  -0.00    0.0      2
2022/02/12 23:00:44.00  -22.122193124  -51.407079135   438.0080   5   0   0.1023   0.0961   0.2924   0.0386  -0.0776   0.0515  -0.00    0.0      2
2022/02/12 23:00:45.00  -22.122193143  -51.407079129   438.0175   5   0   0.1000   0.0940   0.2856   0.0376  -0.0758   0.0507  -0.00    0.0      2
2022/02/12 23:00:46.00  -22.122193198  -51.407079099   438.0127   5   0   0.0978   0.0920   0.2791   0.0368  -0.0740   0.0499  -0.00    0.0      2
2022/02/12 23:00:47.00  -22.122193266  -51.407079083   438.0177   5   0   0.0957   0.0901   0.2731   0.0359  -0.0724   0.0492  -0.00    0.0      2
2022/02/12 23:00:48.00  -22.122193316  -51.407079117   438.0236   5   0   0.0938   0.0883   0.2673   0.0351  -0.0709   0.0486  -0.00    0.0      2
2022/02/12 23:00:49.00  -22.122193353  -51.407079150   438.0260   5   0   0.0919   0.0866   0.2618   0.0344  -0.0694   0.0480  -0.00    0.0      2
2022/02/12 23:00:50.00  -22.122193377  -51.407079178   438.0239   5   0   0.0902   0.0850   0.2567   0.0337  -0.0680   0.0474  -0.00    0.0      2
2022/02/12 23:00:51.00  -22.122193382  -51.407079214   438.0340   5   0   0.0886   0.0835   0.2517   0.0330  -0.0667   0.0469  -0.00    0.0      2
2022/02/12 23:00:52.00  -22.122193360  -51.407079240   438.0566   5   0   0.0870   0.0821   0.2470   0.0323  -0.0654   0.0464  -0.00    0.0      2
2022/02/12 23:00:53.00  -22.122193327  -51.407079274   438.0644   5   0   0.0855   0.0807   0.2425   0.0317  -0.0642   0.0460  -0.00    0.0      2
2022/02/12 23:00:54.00  -22.122193301  -51.407079298   438.0700   5   0   0.0840   0.0794   0.2382   0.0311  -0.0631   0.0455  -0.00    0.0      2
2022/02/12 23:00:55.00  -22.122193300  -51.407079330   438.0851   5   0   0.0827   0.0782   0.2341   0.0305  -0.0620   0.0451  -0.00    0.0      2
2022/02/12 23:00:56.00  -22.122193272  -51.407079385   438.1085   5   0   0.0814   0.0770   0.2302   0.0300  -0.0609   0.0448  -0.00    0.0      2
2022/02/12 23:00:57.00  -22.122193250  -51.407079431   438.1324   5   0   0.0801   0.0759   0.2264   0.0295  -0.0599   0.0444  -0.00    0.0      2
2022/02/12 23:00:58.00  -22.122193259  -51.407079491   438.1559   5   0   0.0789   0.0748   0.2227   0.0289  -0.0589   0.0441  -0.00    0.0      2
2022/02/12 23:00:59.00  -22.122193242  -51.407079543   438.1894   5   0   0.0777   0.0737   0.2192   0.0284  -0.0580   0.0438  -0.00    0.0      2
2022/02/12 23:01:00.00  -22.122193222  -51.407079580   438.2085   5   0   0.0766   0.0727   0.2158   0.0280  -0.0571   0.0435  -0.00    0.0      2
2022/02/12 23:01:01.00  -22.122193231  -51.407079634   438.2322   5   0   0.0755   0.0718   0.2125   0.0275  -0.0562   0.0432  -0.00    0.0      2
2022/02/12 23:01:02.00  -22.122193223  -51.407079693   438.2517   5   0   0.0745   0.0708   0.2093   0.0270  -0.0553   0.0430  -0.00    0.0      2
2022/02/12 23:01:03.00  -22.122193202  -51.407079760   438.2761   5   0   0.0735   0.0699   0.2062   0.0266  -0.0545   0.0427  -0.00    0.0      2
2022/02/12 23:01:04.00  -22.122193190  -51.407079830   438.3019   5   0   0.0725   0.0691   0.2033   0.0262  -0.0537   0.0425  -0.00    0.0      2
2022/02/12 23:01:05.00  -22.122193187  -51.407079906   438.3304   5   0   0.0716   0.0682   0.2004   0.0258  -0.0529   0.0422  -0.00    0.0      2
2022/02/12 23:01:06.00  -22.122193157  -51.407079964   438.3638   5   0   0.0706   0.0674   0.1976   0.0253  -0.0522   0.0420  -0.00    0.0      2
2022/02/12 23:01:07.00  -22.122193107  -51.407079984   438.3845   5   0   0.0698   0.0666   0.1949   0.0250  -0.0515   0.0418  -0.00    0.0      2
2022/02/12 23:01:08.00  -22.122193060  -51.407080014   438.4167   5   0   0.0689   0.0659   0.1922   0.0246  -0.0508   0.0416  -0.00    0.0      2
2022/02/12 23:01:09.00  -22.122193019  -51.407080044   438.4429   5   0   0.0681   0.0651   0.1897   0.0242  -0.0501   0.0414  -0.00    0.0      2
2022/02/12 23:01:10.00  -22.122192981  -51.407080071   438.4703   5   0   0.0673   0.0644   0.1872   0.0238  -0.0494   0.0413  -0.00    0.0      2
2022/02/12 23:01:11.00  -22.122192932  -51.407080078   438.4901   5   0   0.0665   0.0637   0.1847   0.0235  -0.0488   0.0411  -0.00    0.0      2
2022/02/12 23:01:12.00  -22.122192881  -51.407080094   438.5086   5   0   0.0657   0.0631   0.1824   0.0231  -0.0481   0.0409  -0.00    0.0      2
2022/02/12 23:01:13.00  -22.122192814  -51.407080113   438.5269   5   0   0.0650   0.0624   0.1801   0.0228  -0.0475   0.0407  -0.00    0.0      2
2022/02/12 23:01:14.00  -22.122192739  -51.407080141   438.5460   5   0   0.0642   0.0618   0.1778   0.0224  -0.0469   0.0406  -0.00    0.0      2
2022/02/12 23:01:15.00  -22.122192675  -51.407080155   438.5701   5   0   0.0635   0.0612   0.1756   0.0221  -0.0464   0.0404  -0.00    0.0      2
2022/02/12 23:01:16.00  -22.122192626  -51.407080174   438.5860   5   0   0.0628   0.0606   0.1735   0.0218  -0.0458   0.0403  -0.00    0.0      2
2022/02/12 23:01:17.00  -22.122192577  -51.407080185   438.6074   5   0   0.0622   0.0600   0.1714   0.0215  -0.0452   0.0401  -0.00    0.0      2
2022/02/12 23:01:18.00  -22.122192511  -51.407080185   438.6226   5   0   0.0615   0.0594   0.1694   0.0212  -0.0447   0.0400  -0.00    0.0      2
2022/02/12 23:01:19.00  -22.122192452  -51.407080173   438.6333   5   0   0.0609   0.0588   0.1674   0.0209  -0.0442   0.0399  -0.00    0.0      2
2022/02/12 23:01:20.00  -22.122192400  -51.407080174   438.6391   5   0   0.0602   0.0583   0.1654   0.0206  -0.0437   0.0397  -0.00    0.0      2
2022/02/12 23:01:21.00  -22.122192359  -51.407080167   438.6463   5   0   0.0596   0.0578   0.1635   0.0203  -0.0432   0.0396  -0.00    0.0      2
2022/02/12 23:01:22.00  -22.122192319  -51.407080165   438.6547   5   0   0.0590   0.0573   0.1617   0.0200  -0.0427   0.0395  -0.00    0.0      2
2022/02/12 23:01:23.00  -22.122192258  -51.407080167   438.6613   5   0   0.0584   0.0568   0.1598   0.0197  -0.0422   0.0393  -0.00    0.0      2
2022/02/12 23:01:24.00  -22.122192195  -51.407080158   438.6729   5   0   0.0579   0.0563   0.1580   0.0194  -0.0417   0.0392  -0.00    0.0      2
2022/02/12 23:01:25.00  -22.122192124  -51.407080142   438.6756   5   0   0.0573   0.0558   0.1563   0.0192  -0.0413   0.0391  -0.00    0.0      2
2022/02/12 23:01:26.00  -22.122192069  -51.407080142   438.6860   5   0   0.0568   0.0553   0.1546   0.0189  -0.0408   0.0389  -0.00    0.0      2
2022/02/12 23:01:27.00  -22.122192007  -51.407080137   438.6891   5   0   0.0562   0.0549   0.1529   0.0186  -0.0404   0.0388  -0.00    0.0      2
2022/02/12 23:01:28.00  -22.122191932  -51.407080130   438.6915   5   0   0.0557   0.0544   0.1513   0.0184  -0.0399   0.0387  -0.00    0.0      2
2022/02/12 23:01:29.00  -22.122191883  -51.407080108   438.6954   5   0   0.0552   0.0540   0.1496   0.0181  -0.0395   0.0386  -0.00    0.0      2
2022/02/12 23:01:30.00  -22.122191812  -51.407080098   438.7023   5   0   0.0547   0.0535   0.1481   0.0179  -0.0391   0.0385  -0.00    0.0      2
2022/02/12 23:01:31.00  -22.122191750  -51.407080079   438.7077   5   0   0.0542   0.0531   0.1465   0.0176  -0.0387   0.0384  -0.00    0.0      2
2022/02/12 23:01:32.00  -22.122191666  -51.407080054   438.7078   5   0   0.0537   0.0527   0.1450   0.0174  -0.0383   0.0382  -0.00    0.0      2
2022/02/12 23:01:33.00  -22.122191631  -51.407080048   438.7149   5   0   0.0532   0.0523   0.1435   0.0171  -0.0379   0.0381  -0.00    0.0      2
2022/02/12 23:01:34.00  -22.122191608  -51.407080040   438.7148   5   0   0.0527   0.0519   0.1420   0.0169  -0.0376   0.0380  -0.00    0.0      2
2022/02/12 23:01:35.00  -22.122191564  -51.407080027   438.7224   5   0   0.0523   0.0515   0.1406   0.0167  -0.0372   0.0379  -0.00    0.0      2
2022/02/12 23:01:36.00  -22.122191531  -51.407080016   438.7294   5   0   0.0518   0.0511   0.1392   0.0164  -0.0368   0.0378  -0.00    0.0      2
2022/02/12 23:01:37.00  -22.122191507  -51.407080021   438.7346   5   0   0.0514   0.0508   0.1378   0.0162  -0.0365   0.0377  -0.00    0.0      2
2022/02/12 23:01:38.00  -22.122191481  -51.407080038   438.7384   5   0   0.0510   0.0504   0.1364   0.0160  -0.0361   0.0375  -0.00    0.0      2
2022/02/12 23:01:39.00  -22.122191466  -51.407080054   438.7405   5   0   0.0505   0.0500   0.1350   0.0157  -0.0358   0.0374  -0.00    0.0      2
2022/02/12 23:01:40.00  -22.122191439  -51.407080068   438.7508   5   0   0.0501   0.0497   0.1337   0.0155  -0.0354   0.0373  -0.00    0.0      2
2022/02/12 23:01:41.00  -22.122191429  -51.407080071   438.7611   5   0   0.0497   0.0493   0.1324   0.0153  -0.0351   0.0372  -0.00    0.0      2
2022/02/12 23:01:42.00  -22.122191413  -51.407080074   438.7664   5   0   0.0493   0.0490   0.1312   0.0151  -0.0348   0.0371  -0.00    0.0      2
2022/02/12 23:01:43.00  -22.122191407  -51.407080076   438.7713   5   0   0.0489   0.0487   0.1299   0.0149  -0.0345   0.0370  -0.00    0.0      2
2022/02/12 23:01:44.00  -22.122191411  -51.407080099   438.7774   5   0   0.0485   0.0483   0.1287   0.0147  -0.0342   0.0369  -0.00    0.0      2
2022/02/12 23:01:45.00  -22.122191407  -51.407080116   438.7856   5   0   0.0481   0.0480   0.1275   0.0145  -0.0339   0.0368  -0.00    0.0      2
2022/02/12 23:01:46.00  -22.122191416  -51.407080139   438.7924   5   0   0.0477   0.0477   0.1263   0.0142  -0.0336   0.0366  -0.00    0.0      2
2022/02/12 23:01:47.00  -22.122191422  -51.407080170   438.8043   5   0   0.0473   0.0474   0.1251   0.0140  -0.0333   0.0365  -0.00    0.0      2
2022/02/12 23:01:48.00  -22.122191427  -51.407080190   438.8129   5   0   0.0470   0.0471   0.1239   0.0138  -0.0330   0.0364  -0.00    0.0      2
2022/02/12 23:01:49.00  -22.122191419  -51.407080212   438.8309   5   0   0.0466   0.0468   0.1228   0.0136  -0.0327   0.0363  -0.00    0.0      2
2022/02/12 23:01:50.00  -22.122191438  -51.407080232   438.8481   5   0   0.0462   0.0465   0.1217   0.0134  -0.0324   0.0362  -0.00    0.0      2
2022/02/12 23:01:51.00  -22.122191465  -51.407080261   438.8666   5   0   0.0459   0.0462   0.1206   0.0132  -0.0321   0.0361  -0.00    0.0      2
2022/02/12 23:01:52.00  -22.122191471  -51.407080275   438.8822   5   0   0.0455   0.0459   0.1195   0.0130  -0.0319   0.0360  -0.00    0.0      2
2022/02/12 23:01:53.00  -22.122191473  -51.407080276   438.8959   5   0   0.0452   0.0456   0.1184   0.0129  -0.0316   0.0359  -0.00    0.0      2
2022/02/12 23:01:54.00  -22.122191471  -51.407080288   438.9052   5   0   0.0448   0.0453   0.1174   0.0127  -0.0314   0.0357  -0.00    0.0      2
2022/02/12 23:01:55.00  -22.122191474  -51.407080300   438.9190   5   0   0.0445   0.0450   0.1163   0.0125  -0.0311   0.0356  -0.00    0.0      2
2022/02/12 23:01:56.00  -22.122191477  -51.407080315   438.9371   5   0   0.0442   0.0448   0.1153   0.0123  -0.0309   0.0355  -0.00    0.0      2
2022/02/12 23:01:57.00  -22.122191489  -51.407080327   438.9520   5   0   0.0439   0.0445   0.1143   0.0121  -0.0306   0.0354  -0.00    0.0      2
2022/02/12 23:01:58.00  -22.122191479  -51.407080327   438.9650   5   0   0.0435   0.0442   0.1133   0.0119  -0.0304   0.0353  -0.00    0.0      2
2022/02/12 23:01:59.00  -22.122191476  -51.407080326   438.9743   5   0   0.0432   0.0440   0.1123   0.0117  -0.0301   0.0352  -0.00    0.0      2
2022/02/12 23:02:00.00  -22.122191467  -51.407080330   438.9894   5   0   0.0429   0.0437   0.1114   0.0115  -0.0299   0.0351  -0.00    0.0      2
2022/02/12 23:02:01.00  -22.122191452  -51.407080329   438.9970   5   0   0.0426   0.0435   0.1104   0.0114  -0.0297   0.0350  -0.00    0.0      2
2022/02/12 23:02:02.00  -22.122191446  -51.407080322   439.0057   5   0   0.0423   0.0432   0.1095   0.0112  -0.0294   0.0348  -0.00    0.0      2
2022/02/12 23:02:03.00  -22.122191430  -51.407080316   439.0139   5   0   0.0420   0.0430   0.1085   0.0110  -0.0292   0.0347  -0.00    0.0      2
2022/02/12 23:02:04.00  -22.122191412  -51.407080305   439.0208   5   0   0.0417   0.0427   0.1076   0.0108  -0.0290   0.0346  -0.00    0.0      2
2022/02/12 23:02:05.00  -22.122191389  -51.407080293   439.0280   5   0   0.0414   0.0425   0.1067   0.0107  -0.0288   0.0345  -0.00    0.0      2
2022/02/12 23:02:06.00  -22.122191376  -51.407080280   439.0335   5   0   0.0411   0.0423   0.1059   0.0105  -0.0286   0.0344  -0.00    0.0      2
2022/02/12 23:02:07.00  -22.122191351  -51.407080261   439.0424   5   0   0.0408   0.0420   0.1050   0.0103  -0.0284   0.0343  -0.00    0.0      2
2022/02/12 23:02:08.00  -22.122191337  -51.407080246   439.0489   5   0   0.0405   0.0418   0.1041   0.0101  -0.0282   0.0342  -0.00    0.0      2
2022/02/12 23:02:09.00  -22.122191321  -51.407080231   439.0617   5   0   0.0403   0.0416   0.1033   0.0100  -0.0280   0.0340  -0.00    0.0      2
2022/02/12 23:02:10.00  -22.122191305  -51.407080209   439.0672   5   0   0.0400   0.0414   0.1024   0.0098  -0.0278   0.0339  -0.00    0.0      2
2022/02/12 23:02:11.00  -22.122191281  -51.407080187   439.0752   5   0   0.0397   0.0411   0.1016   0.0096  -0.0276   0.0338  -0.00    0.0      2
2022/02/12 23:02:12.00  -22.122191260  -51.407080169   439.0851   5   0   0.0395   0.0409   0.1008   0.0094  -0.0274   0.0337  -0.00    0.0      2
2022/02/12 23:02:13.00  -22.122191255  -51.407080148   439.0976   5   0   0.0392   0.0407   0.1000   0.0093  -0.0272   0.0336  -0.00    0.0      2
2022/02/12 23:02:14.00  -22.122191254  -51.407080125   439.1069   5   0   0.0389   0.0405   0.0992   0.0091  -0.0270   0.0335  -0.00    0.0      2
2022/02/12 23:02:15.00  -22.122191245  -51.407080111   439.1142   5   0   0.0387   0.0403   0.0984   0.0089  -0.0269   0.0334  -0.00    0.0      2
2022/02/12 23:02:16.00  -22.122191234  -51.407080084   439.1203   5   0   0.0384   0.0401   0.0976   0.0088  -0.0267   0.0332  -0.00    0.0      2
2022/02/12 23:02:17.00  -22.122191216  -51.407080064   439.1329   5   0   0.0382   0.0399   0.0969   0.0086  -0.0265   0.0331  -0.00    0.0      2
2022/02/12 23:02:18.00  -22.122191203  -51.407080031   439.1396   5   0   0.0379   0.0397   0.0961   0.0084  -0.0263   0.0330  -0.00    0.0      2
2022/02/12 23:02:19.00  -22.122191192  -51.407080002   439.1470   5   0   0.0377   0.0395   0.0954   0.0083  -0.0262   0.0329  -0.00    0.0      2
2022/02/12 23:02:20.00  -22.122191186  -51.407079982   439.1525   5   0   0.0374   0.0393   0.0947   0.0081  -0.0260   0.0328  -0.00    0.0      2
2022/02/12 23:02:21.00  -22.122191185  -51.407079950   439.1584   5   0   0.0372   0.0391   0.0939   0.0079  -0.0258   0.0327  -0.00    0.0      2
2022/02/12 23:02:22.00  -22.122191172  -51.407079926   439.1636   5   0   0.0369   0.0389   0.0932   0.0078  -0.0257   0.0326  -0.00    0.0      2
2022/02/12 23:02:23.00  -22.122191160  -51.407079904   439.1695   5   0   0.0367   0.0387   0.0925   0.0076  -0.0255   0.0324  -0.00    0.0      2
2022/02/12 23:02:24.00  -22.122191163  -51.407079877   439.1745   5   0   0.0365   0.0385   0.0918   0.0074  -0.0254   0.0323  -0.00    0.0      2
2022/02/12 23:02:25.00  -22.122191159  -51.407079854   439.1817   5   0   0.0362   0.0383   0.0911   0.0073  -0.0252   0.0322  -0.00    0.0      2
2022/02/12 23:02:26.00  -22.122191169  -51.407079832   439.1874   5   0   0.0360   0.0381   0.0905   0.0071  -0.0251   0.0321  -0.00    0.0      2
2022/02/12 23:02:27.00  -22.122191159  -51.407079804   439.1952   5   0   0.0358   0.0380   0.0898   0.0069  -0.0249   0.0320  -0.00    0.0      2
2022/02/12 23:02:28.00  -22.122191165  -51.407079790   439.1992   5   0   0.0356   0.0378   0.0891   0.0068  -0.0248   0.0319  -0.00    0.0      2
2022/02/12 23:02:29.00  -22.122191161  -51.407079775   439.2046   5   0   0.0354   0.0376   0.0885   0.0066  -0.0246   0.0318  -0.00    0.0      2
2022/02/12 23:02:30.00  -22.122191168  -51.407079760   439.2072   5   0   0.0351   0.0374   0.0878   0.0064  -0.0245   0.0316  -0.00    0.0      2
2022/02/12 23:02:31.00  -22.122191166  -51.407079742   439.2119   5   0   0.0349   0.0373   0.0872   0.0063  -0.0243   0.0315  -0.00    0.0      2
2022/02/12 23:02:32.00  -22.122191166  -51.407079722   439.2146   5   0   0.0347   0.0371   0.0866   0.0061  -0.0242   0.0314  -0.00    0.0      2
2022/02/12 23:02:33.00  -22.122191179  -51.407079694   439.2160   5   0   0.0345   0.0369   0.0859   0.0059  -0.0241   0.0313  -0.00    0.0      2
2022/02/12 23:02:34.00  -22.122191187  -51.407079660   439.2187   5   0   0.0343   0.0367   0.0853   0.0057  -0.0239   0.0312  -0.00    0.0      2
2022/02/12 23:02:35.00  -22.122191192  -51.407079628   439.2221   5   0   0.0341   0.0366   0.0847   0.0056  -0.0238   0.0311  -0.00    0.0      2
2022/02/12 23:02:36.00  -22.122191194  -51.407079596   439.2254   5   0   0.0339   0.0364   0.0841   0.0054  -0.0237   0.0310  -0.00    0.0      2
2022/02/12 23:02:37.00  -22.122191197  -51.407079555   439.2278   5   0   0.0337   0.0363   0.0835   0.0052  -0.0236   0.0308  -0.00    0.0      2
2022/02/12 23:02:38.00  -22.122191198  -51.407079515   439.2262   5   0   0.0335   0.0361   0.0829   0.0050  -0.0234   0.0307  -0.00    0.0      2
2022/02/12 23:02:39.00  -22.122191212  -51.407079477   439.2287   5   0   0.0333   0.0359   0.0823   0.0048  -0.0233   0.0306  -0.00    0.0      2
2022/02/12 23:02:40.00  -22.122191220  -51.407079441   439.2307   5   0   0.0331   0.0358   0.0818   0.0046  -0.0232   0.0305  -0.00    0.0      2
2022/02/12 23:02:41.00  -22.122191229  -51.407079399   439.2297   5   0   0.0329   0.0356   0.0812   0.0045  -0.0231   0.0304  -0.00    0.0      2
2022/02/12 23:02:42.00  -22.122191239  -51.407079361   439.2308   5   0   0.0327   0.0355   0.0806   0.0043  -0.0229   0.0303  -0.00    0.0      2
2022/02/12 23:02:43.00  -22.122191251  -51.407079325   439.2268   5   0   0.0325   0.0353   0.0801   0.0041  -0.0228   0.0302  -0.00    0.0      2
2022/02/12 23:02:44.00  -22.122191256  -51.407079286   439.2249   5   0   0.0323   0.0352   0.0795   0.0039  -0.0227   0.0301  -0.00    0.0      2
2022/02/12 23:02:45.00  -22.122191262  -51.407079238   439.2203   5   0   0.0321   0.0350   0.0790   0.0036  -0.0226   0.0300  -0.00    0.0      2
2022/02/12 23:02:46.00  -22.122191270  -51.407079194   439.2168   5   0   0.0319   0.0349   0.0785   0.0034  -0.0225   0.0298  -0.00    0.0      2
2022/02/12 23:02:47.00  -22.122191256  -51.407079146   439.2161   5   0   0.0318   0.0347   0.0779   0.0032  -0.0224   0.0297  -0.00    0.0      2
2022/02/12 23:02:48.00  -22.122191258  -51.407079109   439.2159   5   0   0.0316   0.0346   0.0774   0.0029  -0.0223   0.0296  -0.00    0.0      2
2022/02/12 23:02:49.00  -22.122191253  -51.407079073   439.2148   5   0   0.0314   0.0344   0.0769   0.0027  -0.0222   0.0295  -0.00    0.0      2
2022/02/12 23:02:50.00  -22.122191243  -51.407079035   439.2106   5   0   0.0312   0.0343   0.0764   0.0024  -0.0221   0.0294  -0.00    0.0      2
2022/02/12 23:02:51.00  -22.122191242  -51.407079000   439.2066   5   0   0.0310   0.0341   0.0759   0.0021  -0.0220   0.0293  -0.00    0.0      2
2022/02/12 23:02:52.00  -22.122191255  -51.407078969   439.2035   5   0   0.0309   0.0340   0.0754   0.0017  -0.0218   0.0292  -0.00    0.0      2
2022/02/12 23:02:53.00  -22.122191261  -51.407078939   439.1975   5   0   0.0307   0.0339   0.0749   0.0012  -0.0217   0.0291  -0.00    0.0      2
2022/02/12 23:02:54.00  -22.122191270  -51.407078904   439.1935   5   0   0.0305   0.0337   0.0744   0.0004  -0.0216   0.0290  -0.00    0.0      2
2022/02/12 23:02:55.00  -22.122191278  -51.407078867   439.1891   5   0   0.0304   0.0336   0.0739  -0.0011  -0.0215   0.0289  -0.00    0.0      2
2022/02/12 23:02:56.00  -22.122191292  -51.407078837   439.1858   5   0   0.0302   0.0334   0.0734  -0.0016  -0.0214   0.0288  -0.00    0.0      2
2022/02/12 23:02:57.00  -22.122191304  -51.407078803   439.1807   5   0   0.0300   0.0333   0.0730  -0.0019  -0.0214   0.0286  -0.00    0.0      2
2022/02/12 23:02:58.00  -22.122191306  -51.407078767   439.1765   5   0   0.0299   0.0332   0.0725  -0.0022  -0.0213   0.0285  -0.00    0.0      2
2022/02/12 23:02:59.00  -22.122191317  -51.407078737   439.1720   5   0   0.0297   0.0330   0.0720  -0.0025  -0.0212   0.0284  -0.00    0.0      2
2022/02/12 23:03:00.00  -22.122191326  -51.407078709   439.1672   5   0   0.0295   0.0329   0.0716  -0.0027  -0.0211   0.0283  -0.00    0.0      2
2022/02/12 23:03:01.00  -22.122191343  -51.407078684   439.1643   5   0   0.0294   0.0328   0.0711  -0.0029  -0.0210   0.0282  -0.00    0.0      2
2022/02/12 23:03:02.00  -22.122191360  -51.407078657   439.1603   5   0   0.0292   0.0327   0.0707  -0.0031  -0.0209   0.0281  -0.00    0.0      2
2022/02/12 23:03:03.00  -22.122191376  -51.407078633   439.1571   5   0   0.0291   0.0325   0.0702  -0.0033  -0.0208   0.0280  -0.00    0.0      2
2022/02/12 23:03:04.00  -22.122191375  -51.407078608   439.1537   5   0   0.0289   0.0324   0.0698  -0.0034  -0.0207   0.0279  -0.00    0.0      2
2022/02/12 23:03:05.00  -22.122191375  -51.407078579   439.1497   5   0   0.0287   0.0323   0.0694  -0.0036  -0.0206   0.0278  -0.00    0.0      2
2022/02/12 23:03:06.00  -22.122191376  -51.407078557   439.1458   5   0   0.0286   0.0321   0.0689  -0.0037  -0.0205   0.0277  -0.00    0.0      2
2022/02/12 23:03:07.00  -22.122191378  -51.407078546   439.1441   5   0   0.0284   0.0320   0.0685  -0.0038  -0.0205   0.0276  -0.00    0.0      2
2022/02/12 23:03:08.00  -22.122191377  -51.407078535   439.1414   5   0   0.0283   0.0319   0.0681  -0.0040  -0.0204   0.0275  -0.00    0.0      2
2022/02/12 23:03:09.00  -22.122191381  -51.407078526   439.1379   5   0   0.0281   0.0318   0.0677  -0.0041  -0.0203   0.0274  -0.00    0.0      2
2022/02/12 23:03:10.00  -22.122191374  -51.407078518   439.1374   5   0   0.0280   0.0317   0.0672  -0.0042  -0.0202   0.0273  -0.00    0.0      2
2022/02/12 23:03:11.00  -22.122191373  -51.407078515   439.1348   5   0   0.0278   0.0315   0.0668  -0.0043  -0.0201   0.0272  -0.00    0.0      2
2022/02/12 23:03:12.00  -22.122191369  -51.407078509   439.1304   5   0   0.0277   0.0314   0.0664  -0.0044  -0.0200   0.0271  -0.00    0.0      2
2022/02/12 23:03:13.00  -22.122191372  -51.407078502   439.1262   5   0   0.0275   0.0313   0.0660  -0.0045  -0.0200   0.0270  -0.00    0.0      2
2022/02/12 23:03:14.00  -22.122191366  -51.407078504   439.1229   5   0   0.0274   0.0312   0.0656  -0.0046  -0.0199   0.0269  -0.00    0.0      2
2022/02/12 23:03:15.00  -22.122191361  -51.407078502   439.1209   5   0   0.0273   0.0311   0.0652  -0.0047  -0.0198   0.0268  -0.00    0.0      2
2022/02/12 23:03:16.00  -22.122191356  -51.407078503   439.1190   5   0   0.0271   0.0310   0.0649  -0.0048  -0.0197   0.0267  -0.00    0.0      2
2022/02/12 23:03:17.00  -22.122191345  -51.407078504   439.1168   5   0   0.0270   0.0308   0.0645  -0.0049  -0.0197   0.0266  -0.00    0.0      2
2022/02/12 23:03:18.00  -22.122191334  -51.407078512   439.1132   5   0   0.0268   0.0307   0.0641  -0.0050  -0.0196   0.0265  -0.00    0.0      2
2022/02/12 23:03:19.00  -22.122191326  -51.407078519   439.1128   5   0   0.0267   0.0306   0.0637  -0.0050  -0.0195   0.0264  -0.00    0.0      2
2022/02/12 23:03:20.00  -22.122191315  -51.407078525   439.1105   5   0   0.0266   0.0305   0.0633  -0.0051  -0.0194   0.0263  -0.00    0.0      2
2022/02/12 23:03:21.00  -22.122191293  -51.407078528   439.1075   5   0   0.0264   0.0304   0.0630  -0.0052  -0.0194   0.0262  -0.00    0.0      2
2022/02/12 23:03:22.00  -22.122191291  -51.407078530   439.1045   5   0   0.0263   0.0303   0.0626  -0.0053  -0.0193   0.0261  -0.00    0.0      2
2022/02/12 23:03:23.00  -22.122191283  -51.407078541   439.1032   5   0   0.0262   0.0302   0.0623  -0.0053  -0.0192   0.0260  -0.00    0.0      2
2022/02/12 23:03:24.00  -22.122191267  -51.407078539   439.1028   5   0   0.0260   0.0301   0.0619  -0.0054  -0.0192   0.0259  -0.00    0.0      2
2022/02/12 23:03:25.00  -22.122191255  -51.407078538   439.0993   5   0   0.0259   0.0300   0.0615  -0.0055  -0.0191   0.0258  -0.00    0.0      2
2022/02/12 23:03:26.00  -22.122191241  -51.407078541   439.0985   5   0   0.0258   0.0299   0.0612  -0.0055  -0.0190   0.0257  -0.00    0.0      2
2022/02/12 23:03:27.00  -22.122191236  -51.407078541   439.0981   5   0   0.0257   0.0298   0.0608  -0.0056  -0.0190   0.0256  -0.00    0.0      2
2022/02/12 23:03:28.00  -22.122191220  -51.407078544   439.0977   5   0   0.0255   0.0297   0.0605  -0.0056  -0.0189   0.0255  -0.00    0.0      2
2022/02/12 23:03:29.00  -22.122191207  -51.407078546   439.0969   5   0   0.0254   0.0295   0.0602  -0.0057  -0.0188   0.0254  -0.00    0.0      2
2022/02/12 23:03:30.00  -22.122191195  -51.407078543   439.0957   5   0   0.0253   0.0294   0.0598  -0.0057  -0.0188   0.0253  -0.00    0.0      2
2022/02/12 23:03:31.00  -22.122191191  -51.407078543   439.0953   5   0   0.0252   0.0293   0.0595  -0.0058  -0.0187   0.0252  -0.00    0.0      2
2022/02/12 23:03:32.00  -22.122191173  -51.407078531   439.0940   5   0   0.0250   0.0292   0.0591  -0.0058  -0.0186   0.0251  -0.00    0.0      2
2022/02/12 23:03:33.00  -22.122191173  -51.407078530   439.0931   5   0   0.0249   0.0291   0.0588  -0.0059  -0.0186   0.0250  -0.00    0.0      2
2022/02/12 23:03:34.00  -22.122191149  -51.407078529   439.0926   5   0   0.0248   0.0290   0.0585  -0.0059  -0.0185   0.0249  -0.00    0.0      2
2022/02/12 23:03:35.00  -22.122191140  -51.407078529   439.0928   5   0   0.0247   0.0289   0.0582  -0.0060  -0.0184   0.0248  -0.00    0.0      2
2022/02/12 23:03:36.00  -22.122191128  -51.407078522   439.0916   5   0   0.0246   0.0288   0.0578  -0.0060  -0.0184   0.0248  -0.00    0.0      2
2022/02/12 23:03:37.00  -22.122191115  -51.407078519   439.0907   5   0   0.0244   0.0287   0.0575  -0.0061  -0.0183   0.0247  -0.00    0.0      2
2022/02/12 23:03:38.00  -22.122191108  -51.407078513   439.0911   5   0   0.0243   0.0286   0.0572  -0.0061  -0.0183   0.0246  -0.00    0.0      2
2022/02/12 23:03:39.00  -22.122191099  -51.407078514   439.0904   5   0   0.0242   0.0286   0.0569  -0.0061  -0.0182   0.0245  -0.00    0.0      2
2022/02/12 23:03:40.00  -22.122191083  -51.407078509   439.0882   5   0   0.0241   0.0285   0.0566  -0.0062  -0.0181   0.0244  -0.00    0.0      2
2022/02/12 23:03:41.00  -22.122191071  -51.407078509   439.0876   5   0   0.0240   0.0284   0.0563  -0.0062  -0.0181   0.0243  -0.00    0.0      2
2022/02/12 23:03:42.00  -22.122191062  -51.407078513   439.0879   5   0   0.0239   0.0283   0.0560  -0.0063  -0.0180   0.0242  -0.00    0.0      2
2022/02/12 23:03:43.00  -22.122191060  -51.407078511   439.0888   5   0   0.0237   0.0282   0.0557  -0.0063  -0.0180   0.0241  -0.00    0.0      2
2022/02/12 23:03:44.00  -22.122191052  -51.407078519   439.0897   5   0   0.0236   0.0281   0.0554  -0.0063  -0.0179   0.0240  -0.00    0.0      2
2022/02/12 23:03:45.00  -22.122191042  -51.407078525   439.0902   5   0   0.0235   0.0280   0.0551  -0.0064  -0.0179   0.0239  -0.00    0.0      2
2022/02/12 23:03:46.00  -22.122191036  -51.407078528   439.0913   5   0   0.0234   0.0279   0.0548  -0.0064  -0.0178   0.0238  -0.00    0.0      2
2022/02/12 23:03:47.00  -22.122191034  -51.407078531   439.0915   5   0   0.0233   0.0278   0.0545  -0.0064  -0.0177   0.0238  -0.00    0.0      2
2022/02/12 23:03:48.00  -22.122191027  -51.407078540   439.0913   5   0   0.0232   0.0277   0.0542  -0.0065  -0.0177   0.0237  -0.00    0.0      2
2022/02/12 23:03:49.00  -22.122191022  -51.407078542   439.0912   5   0   0.0231   0.0276   0.0540  -0.0065  -0.0176   0.0236  -0.00    0.0      2
2022/02/12 23:03:50.00  -22.122191022  -51.407078550   439.0911   5   0   0.0230   0.0275   0.0537  -0.0065  -0.0176   0.0235  -0.00    0.0      2
2022/02/12 23:03:51.00  -22.122191022  -51.407078553   439.0913   5   0   0.0229   0.0274   0.0534  -0.0065  -0.0175   0.0234  -0.00    0.0      2
2022/02/12 23:03:52.00  -22.122191019  -51.407078554   439.0926   5   0   0.0228   0.0274   0.0531  -0.0066  -0.0175   0.0233  -0.00    0.0      2
2022/02/12 23:03:53.00  -22.122191018  -51.407078560   439.0936   5   0   0.0227   0.0273   0.0528  -0.0066  -0.0174   0.0232  -0.00    0.0      2
2022/02/12 23:03:54.00  -22.122191013  -51.407078562   439.0959   5   0   0.0226   0.0272   0.0526  -0.0066  -0.0174   0.0232  -0.00    0.0      2
2022/02/12 23:03:55.00  -22.122191013  -51.407078568   439.0960   5   0   0.0225   0.0271   0.0523  -0.0067  -0.0173   0.0231  -0.00    0.0      2
2022/02/12 23:03:56.00  -22.122191010  -51.407078573   439.0953   5   0   0.0224   0.0270   0.0520  -0.0067  -0.0173   0.0230  -0.00    0.0      2
2022/02/12 23:03:57.00  -22.122191008  -51.407078572   439.0959   5   0   0.0223   0.0269   0.0518  -0.0067  -0.0172   0.0229  -0.00    0.0      2
2022/02/12 23:03:58.00  -22.122191003  -51.407078571   439.0938   5   0   0.0222   0.0268   0.0515  -0.0067  -0.0172   0.0228  -0.00    0.0      2
2022/02/12 23:03:59.00  -22.122191000  -51.407078572   439.0937   5   0   0.0221   0.0268   0.0512  -0.0067  -0.0171   0.0227  -0.00    0.0      2
2022/02/12 23:04:00.00  -22.122190997  -51.407078566   439.0920   5   0   0.0220   0.0267   0.0510  -0.0068  -0.0171   0.0227  -0.00    0.0      2
2022/02/12 23:04:01.00  -22.122190992  -51.407078567   439.0900   5   0   0.0219   0.0266   0.0507  -0.0068  -0.0170   0.0226  -0.00    0.0      2
2022/02/12 23:04:02.00  -22.122190990  -51.407078568   439.0916   5   0   0.0218   0.0265   0.0505  -0.0068  -0.0170   0.0225  -0.00    0.0      2
2022/02/12 23:04:03.00  -22.122190986  -51.407078564   439.0923   5   0   0.0217   0.0264   0.0502  -0.0068  -0.0169   0.0224  -0.00    0.0      2
2022/02/12 23:04:04.00  -22.122190974  -51.407078562   439.0909   5   0   0.0216   0.0263   0.0500  -0.0068  -0.0169   0.0223  -0.00    0.0      2
2022/02/12 23:04:05.00  -22.122190967  -51.407078561   439.0915   5   0   0.0215   0.0263   0.0497  -0.0069  -0.0168   0.0223  -0.00    0.0      2
2022/02/12 23:04:06.00  -22.122190955  -51.407078554   439.0909   5   0   0.0214   0.0262   0.0495  -0.0069  -0.0168   0.0222  -0.00    0.0      2
2022/02/12 23:04:07.00  -22.122190953  -51.407078551   439.0901   5   0   0.0213   0.0261   0.0492  -0.0069  -0.0167   0.0221  -0.00    0.0      2
2022/02/12 23:04:08.00  -22.122190951  -51.407078555   439.0892   5   0   0.0212   0.0260   0.0490  -0.0069  -0.0167   0.0220  -0.00    0.0      2
2022/02/12 23:04:09.00  -22.122190942  -51.407078553   439.0897   5   0   0.0211   0.0259   0.0488  -0.0069  -0.0166   0.0219  -0.00    0.0      2
2022/02/12 23:04:10.00  -22.122190937  -51.407078551   439.0908   5   0   0.0210   0.0259   0.0485  -0.0069  -0.0166   0.0219  -0.00    0.0      2
2022/02/12 23:04:11.00  -22.122190926  -51.407078549   439.0920   5   0   0.0209   0.0258   0.0483  -0.0070  -0.0165   0.0218  -0.00    0.0      2
2022/02/12 23:04:12.00  -22.122190916  -51.407078549   439.0928   5   0   0.0208   0.0257   0.0481  -0.0070  -0.0165   0.0217  -0.00    0.0      2
2022/02/12 23:04:13.00  -22.122190911  -51.407078545   439.0920   5   0   0.0207   0.0256   0.0478  -0.0070  -0.0164   0.0216  -0.00    0.0      2
2022/02/12 23:04:14.00  -22.122190901  -51.407078543   439.0921   5   0   0.0207   0.0255   0.0476  -0.0070  -0.0164   0.0215  -0.00    0.0      2
2022/02/12 23:04:15.00  -22.122190889  -51.407078541   439.0930   5   0   0.0206   0.0255   0.0474  -0.0070  -0.0164   0.0215  -0.00    0.0      2
2022/02/12 23:04:16.00  -22.122190880  -51.407078545   439.0936   5   0   0.0205   0.0254   0.0471  -0.0070  -0.0163   0.0214  -0.00    0.0      2
2022/02/12 23:04:17.00  -22.122190867  -51.407078552   439.0937   5   0   0.0204   0.0253   0.0469  -0.0070  -0.0163   0.0213  -0.00    0.0      2
2022/02/12 23:04:18.00  -22.122190857  -51.407078549   439.0932   5   0   0.0203   0.0252   0.0467  -0.0071  -0.0162   0.0212  -0.00    0.0      2
2022/02/12 23:04:19.00  -22.122190846  -51.407078546   439.0934   5   0   0.0202   0.0252   0.0465  -0.0071  -0.0162   0.0212  -0.00    0.0      2
2022/02/12 23:04:20.00  -22.122190838  -51.407078545   439.0911   5   0   0.0201   0.0251   0.0463  -0.0071  -0.0161   0.0211  -0.00    0.0      2
2022/02/12 23:04:21.00  -22.122190829  -51.407078545   439.0899   5   0   0.0201   0.0250   0.0461  -0.0071  -0.0161   0.0210  -0.00    0.0      2
2022/02/12 23:04:22.00  -22.122190814  -51.407078551   439.0910   5   0   0.0200   0.0249   0.0458  -0.0071  -0.0161   0.0209  -0.00    0.0      2
2022/02/12 23:04:23.00  -22.122190803  -51.407078548   439.0902   5   0   0.0199   0.0249   0.0456  -0.0071  -0.0160   0.0209  -0.00    0.0      2
2022/02/12 23:04:24.00  -22.122190798  -51.407078545   439.0884   5   0   0.0198   0.0248   0.0454  -0.0071  -0.0160   0.0208  -0.00    0.0      2
2022/02/12 23:04:25.00  -22.122190791  -51.407078545   439.0876   5   0   0.0197   0.0247   0.0452  -0.0071  -0.0159   0.0207  -0.00    0.0      2
2022/02/12 23:04:26.00  -22.122190784  -51.407078542   439.0878   5   0   0.0196   0.0247   0.0450  -0.0071  -0.0159   0.0207  -0.00    0.0      2
2022/02/12 23:04:27.00  -22.122190782  -51.407078539   439.0871   5   0   0.0196   0.0246   0.0448  -0.0071  -0.0158   0.0206  -0.00    0.0      2
2022/02/12 23:04:28.00  -22.122190776  -51.407078534   439.0867   5   0   0.0195   0.0245   0.0446  -0.0072  -0.0158   0.0205  -0.00    0.0      2
2022/02/12 23:04:29.00  -22.122190769  -51.407078537   439.0871   5   0   0.0194   0.0244   0.0444  -0.0072  -0.0158   0.0204  -0.00    0.0      2
2022/02/12 23:04:30.00  -22.122190762  -51.407078546   439.0865   5   0   0.0193   0.0244   0.0442  -0.0072  -0.0157   0.0204  -0.00    0.0      2
2022/02/12 23:04:31.00  -22.122190760  -51.407078546   439.0863   5   0   0.0192   0.0243   0.0440  -0.0072  -0.0157   0.0203  -0.00    0.0      2
2022/02/12 23:04:32.00  -22.122190754  -51.407078550   439.0863   5   0   0.0192   0.0242   0.0438  -0.0072  -0.0156   0.0202  -0.00    0.0      6
2022/02/12 23:04:33.00  -22.122190751  -51.407078555   439.0849   5   0   0.0191   0.0242   0.0436  -0.0072  -0.0156   0.0202  -0.00    0.0      6
2022/02/12 23:04:34.00  -22.122190746  -51.407078557   439.0854   5   0   0.0190   0.0241   0.0434  -0.0072  -0.0156   0.0201  -0.00    0.0      6
2022/02/12 23:04:35.00  -22.122190742  -51.407078560   439.0853   5   0   0.0189   0.0240   0.0432  -0.0072  -0.0155   0.0200  -0.00    0.0      6
2022/02/12 23:04:36.00  -22.122190735  -51.407078559   439.0852   5   0   0.0189   0.0240   0.0430  -0.0072  -0.0155   0.0200  -0.00    0.0      6
2022/02/12 23:04:37.00  -22.122190735  -51.407078556   439.0851   5   0   0.0188   0.0239   0.0428  -0.0072  -0.0155   0.0199  -0.00    0.0      6
2022/02/12 23:04:38.00  -22.122190727  -51.407078553   439.0849   5   0   0.0187   0.0238   0.0426  -0.0072  -0.0154   0.0198  -0.00    0.0      6
2022/02/12 23:04:39.00  -22.122190721  -51.407078556   439.0847   5   0   0.0186   0.0238   0.0424  -0.0072  -0.0154   0.0197  -0.00    0.0      6
2022/02/12 23:04:40.00  -22.122190716  -51.407078557   439.0851   5   0   0.0186   0.0237   0.0423  -0.0072  -0.0153   0.0197  -0.00    0.0      6
2022/02/12 23:04:41.00  -22.122190708  -51.407078560   439.0859   5   0   0.0185   0.0236   0.0421  -0.0072  -0.0153   0.0196  -0.00    0.0      6
2022/02/12 23:04:42.00  -22.122190701  -51.407078565   439.0866   5   0   0.0184   0.0236   0.0419  -0.0072  -0.0153   0.0195  -0.00    0.0      6
2022/02/12 23:04:43.00  -22.122190688  -51.407078567   439.0891   5   0   0.0183   0.0235   0.0417  -0.0072  -0.0152   0.0195  -0.00    0.0      6
2022/02/12 23:04:44.00  -22.122190678  -51.407078571   439.0901   5   0   0.0183   0.0234   0.0415  -0.0072  -0.0152   0.0194  -0.00    0.0      6
2022/02/12 23:04:45.00  -22.122190670  -51.407078576   439.0905   5   0   0.0182   0.0234   0.0413  -0.0072  -0.0152   0.0193  -0.00    0.0      6
2022/02/12 23:04:46.00  -22.122190662  -51.407078581   439.0918   5   0   0.0181   0.0233   0.0412  -0.0072  -0.0151   0.0193  -0.00    0.0      6
2022/02/12 23:04:47.00  -22.122190651  -51.407078588   439.0920   5   0   0.0180   0.0232   0.0410  -0.0072  -0.0151   0.0192  -0.00    0.0      6
2022/02/12 23:04:48.00  -22.122190643  -51.407078591   439.0933   5   0   0.0180   0.0232   0.0408  -0.0072  -0.0150   0.0192  -0.00    0.0      6
2022/02/12 23:04:49.00  -22.122190635  -51.407078591   439.0939   5   0   0.0179   0.0231   0.0406  -0.0073  -0.0150   0.0191  -0.00    0.0      6
2022/02/12 23:04:50.00  -22.122190627  -51.407078591   439.0952   5   0   0.0178   0.0231   0.0405  -0.0073  -0.0150   0.0190  -0.00    0.0      6
2022/02/12 23:04:51.00  -22.122190622  -51.407078598   439.0958   5   0   0.0178   0.0230   0.0403  -0.0073  -0.0149   0.0190  -0.00    0.0      6
2022/02/12 23:04:52.00  -22.122190613  -51.407078601   439.0973   5   0   0.0177   0.0229   0.0401  -0.0073  -0.0149   0.0189  -0.00    0.0      6
2022/02/12 23:04:53.00  -22.122190611  -51.407078605   439.0975   5   0   0.0176   0.0229   0.0400  -0.0073  -0.0149   0.0188  -0.00    0.0      6
2022/02/12 23:04:54.00  -22.122190607  -51.407078610   439.0980   5   0   0.0176   0.0228   0.0398  -0.0073  -0.0148   0.0188  -0.00    0.0      6
2022/02/12 23:04:55.00  -22.122190605  -51.407078614   439.0984   5   0   0.0175   0.0227   0.0396  -0.0073  -0.0148   0.0187  -0.00    0.0      6
2022/02/12 23:04:56.00  -22.122190604  -51.407078616   439.0995   5   0   0.0174   0.0227   0.0395  -0.0073  -0.0148   0.0187  -0.00    0.0      6
2022/02/12 23:04:57.00  -22.122190601  -51.407078612   439.0997   5   0   0.0174   0.0226   0.0393  -0.0073  -0.0147   0.0186  -0.00    0.0      6
2022/02/12 23:04:58.00  -22.122190591  -51.407078608   439.1009   5   0   0.0173   0.0226   0.0391  -0.0073  -0.0147   0.0185  -0.00    0.0      6
2022/02/12 23:04:59.00  -22.122190589  -51.407078605   439.1002   5   0   0.0172   0.0225   0.0390  -0.0073  -0.0147   0.0185  -0.00    0.0      6
2022/02/12 23:05:00.00  -22.122190593  -51.407078598   439.1000   5   0   0.0172   0.0224   0.0388  -0.0073  -0.0146   0.0184  -0.00    0.0      6
2022/02/12 23:05:01.00  -22.122190591  -51.407078596   439.0989   5   0   0.0171   0.0224   0.0386  -0.0073  -0.0146   0.0183  -0.00    0.0      6
2022/02/12 23:05:02.00  -22.122190588  -51.407078598   439.0988   5   0   0.0170   0.0223   0.0385  -0.0073  -0.0146   0.0183  -0.00    0.0      6
2022/02/12 23:05:03.00  -22.122190588  -51.407078598   439.0979   5   0   0.0170   0.0223   0.0383  -0.0073  -0.0145   0.0182  -0.00    0.0      6
2022/02/12 23:05:04.00  -22.122190588  -51.407078595   439.0978   5   0   0.0169   0.0222   0.0382  -0.0073  -0.0145   0.0182  -0.00    0.0      6
2022/02/12 23:05:05.00  -22.122190588  -51.407078593   439.0972   5   0   0.0169   0.0221   0.0380  -0.0073  -0.0145   0.0181  -0.00    0.0      6
2022/02/12 23:05:06.00  -22.122190586  -51.407078587   439.0976   5   0   0.0168   0.0221   0.0379  -0.0073  -0.0144   0.0180  -0.00    0.0      6
2022/02/12 23:05:07.00  -22.122190584  -51.407078585   439.0974   5   0   0.0167   0.0220   0.0377  -0.0073  -0.0144   0.0180  -0.00    0.0      6
2022/02/12 23:05:08.00  -22.122190587  -51.407078578   439.0963   5   0   0.0167   0.0220   0.0376  -0.0073  -0.0144   0.0179  -0.00    0.0      6
2022/02/12 23:05:09.00  -22.122190589  -51.407078572   439.0960   5   0   0.0166   0.0219   0.0374  -0.0073  -0.0143   0.0179  -0.00    0.0      6
2022/02/12 23:05:10.00  -22.122190589  -51.407078562   439.0958   5   0   0.0165   0.0219   0.0373  -0.0073  -0.0143   0.0178  -0.00    0.0      6
2022/02/12 23:05:11.00  -22.122190587  -51.407078557   439.0947   5   0   0.0165   0.0218   0.0371  -0.0073  -0.0143   0.0178  -0.00    0.0      6
2022/02/12 23:05:12.00  -22.122190589  -51.407078550   439.0946   5   0   0.0164   0.0217   0.0370  -0.0073  -0.0142   0.0177  -0.00    0.0      6
2022/02/12 23:05:13.00  -22.122190588  -51.407078539   439.0940   5   0   0.0164   0.0217   0.0368  -0.0072  -0.0142   0.0176  -0.00    0.0      6
2022/02/12 23:05:14.00  -22.122190587  -51.407078529   439.0942   5   0   0.0163   0.0216   0.0367  -0.0072  -0.0142   0.0176  -0.00    0.0      6
2022/02/12 23:05:15.00  -22.122190583  -51.407078522   439.0941   5   0   0.0162   0.0216   0.0365  -0.0072  -0.0141   0.0175  -0.00    0.0      6
2022/02/12 23:05:16.00  -22.122190585  -51.407078516   439.0939   5   0   0.0162   0.0215   0.0364  -0.0072  -0.0141   0.0175  -0.00    0.0      6
2022/02/12 23:05:17.00  -22.122190587  -51.407078510   439.0943   5   0   0.0161   0.0215   0.0362  -0.0072  -0.0141   0.0174  -0.00    0.0      6
2022/02/12 23:05:18.00  -22.122190587  -51.407078501   439.0946   5   0   0.0161   0.0214   0.0361  -0.0072  -0.0140   0.0174  -0.00    0.0      6
2022/02/12 23:05:19.00  -22.122190590  -51.407078491   439.0933   5   0   0.0160   0.0214   0.0360  -0.0072  -0.0140   0.0173  -0.00    0.0      6
2022/02/12 23:05:20.00  -22.122190590  -51.407078486   439.0931   5   0   0.0160   0.0213   0.0358  -0.0072  -0.0140   0.0173  -0.00    0.0      6
2022/02/12 23:05:21.00  -22.122190590  -51.407078481   439.0936   5   0   0.0159   0.0213   0.0357  -0.0072  -0.0139   0.0172  -0.00    0.0      6
2022/02/12 23:05:22.00  -22.122190590  -51.407078477   439.0943   5   0   0.0158   0.0212   0.0355  -0.0072  -0.0139   0.0171  -0.00    0.0      6
2022/02/12 23:05:23.00  -22.122190593  -51.407078475   439.0944   5   0   0.0158   0.0212   0.0354  -0.0072  -0.0139   0.0171  -0.00    0.0      6
2022/02/12 23:05:24.00  -22.122190594  -51.407078467   439.0958   5   0   0.0157   0.0211   0.0353  -0.0072  -0.0139   0.0170  -0.00    0.0      6
2022/02/12 23:05:25.00  -22.122190594  -51.407078463   439.0969   5   0   0.0157   0.0210   0.0351  -0.0072  -0.0138   0.0170  -0.00    0.0      6
2022/02/12 23:05:26.00  -22.122190592  -51.407078460   439.0984   5   0   0.0156   0.0210   0.0350  -0.0072  -0.0138   0.0169  -0.00    0.0      6
2022/02/12 23:05:27.00  -22.122190596  -51.407078451   439.1000   5   0   0.0156   0.0209   0.0349  -0.0072  -0.0138   0.0169  -0.00    0.0      6
2022/02/12 23:05:28.00  -22.122190593  -51.407078444   439.1013   5   0   0.0155   0.0209   0.0347  -0.0072  -0.0137   0.0168  -0.00    0.0      6
2022/02/12 23:05:29.00  -22.122190594  -51.407078435   439.1030   5   0   0.0155   0.0208   0.0346  -0.0072  -0.0137   0.0168  -0.00    0.0      6
2022/02/12 23:05:30.00  -22.122190594  -51.407078431   439.1054   5   0   0.0154   0.0208   0.0345  -0.0072  -0.0137   0.0167  -0.00    0.0      6
2022/02/12 23:05:31.00  -22.122190591  -51.407078423   439.1074   5   0   0.0154   0.0207   0.0344  -0.0072  -0.0136   0.0167  -0.00    0.0      6
2022/02/12 23:05:32.00  -22.122190589  -51.407078417   439.1093   5   0   0.0153   0.0207   0.0342  -0.0072  -0.0136   0.0166  -0.00    0.0      6
2022/02/12 23:05:33.00  -22.122190587  -51.407078407   439.1106   5   0   0.0152   0.0206   0.0341  -0.0072  -0.0136   0.0166  -0.00    0.0      6
2022/02/12 23:05:34.00  -22.122190584  -51.407078396   439.1124   5   0   0.0152   0.0206   0.0340  -0.0072  -0.0136   0.0165  -0.00    0.0      6
2022/02/12 23:05:35.00  -22.122190585  -51.407078392   439.1138   5   0   0.0151   0.0205   0.0338  -0.0072  -0.0135   0.0165  -0.00    0.0      6
2022/02/12 23:05:36.00  -22.122190583  -51.407078380   439.1149   5   0   0.0151   0.0205   0.0337  -0.0072  -0.0135   0.0164  -0.00    0.0      6
2022/02/12 23:05:37.00  -22.122190582  -51.407078369   439.1168   5   0   0.0150   0.0204   0.0336  -0.0072  -0.0135   0.0164  -0.00    0.0      6
2022/02/12 23:05:38.00  -22.122190586  -51.407078359   439.1173   5   0   0.0150   0.0204   0.0335  -0.0072  -0.0134   0.0163  -0.00    0.0      6
2022/02/12 23:05:39.00  -22.122190586  -51.407078347   439.1186   5   0   0.0149   0.0203   0.0333  -0.0072  -0.0134   0.0163  -0.00    0.0      6
2022/02/12 23:05:40.00  -22.122190586  -51.407078337   439.1197   5   0   0.0149   0.0203   0.0332  -0.0072  -0.0134   0.0162  -0.00    0.0      6
2022/02/12 23:05:41.00  -22.122190582  -51.407078326   439.1222   5   0   0.0148   0.0202   0.0331  -0.0071  -0.0134   0.0162  -0.00    0.0      6
2022/02/12 23:05:42.00  -22.122190576  -51.407078311   439.1239   5   0   0.0148   0.0202   0.0330  -0.0071  -0.0133   0.0161  -0.00    0.0      6
2022/02/12 23:05:43.00  -22.122190571  -51.407078299   439.1256   5   0   0.0147   0.0201   0.0329  -0.0071  -0.0133   0.0161  -0.00    0.0      6
2022/02/12 23:05:44.00  -22.122190566  -51.407078287   439.1273   5   0   0.0147   0.0201   0.0327  -0.0071  -0.0133   0.0160  -0.00    0.0      6
2022/02/12 23:05:45.00  -22.122190560  -51.407078273   439.1281   5   0   0.0146   0.0200   0.0326  -0.0071  -0.0132   0.0160  -0.00    0.0      6
2022/02/12 23:05:46.00  -22.122190555  -51.407078264   439.1298   5   0   0.0146   0.0200   0.0325  -0.0071  -0.0132   0.0159  -0.00    0.0      6
2022/02/12 23:05:47.00  -22.122190548  -51.407078252   439.1323   5   0   0.0145   0.0199   0.0324  -0.0071  -0.0132   0.0159  -0.00    0.0      6
2022/02/12 23:05:48.00  -22.122190542  -51.407078241   439.1336   5   0   0.0145   0.0199   0.0323  -0.0071  -0.0132   0.0158  -0.00    0.0      6
2022/02/12 23:05:49.00  -22.122190531  -51.407078230   439.1353   5   0   0.0144   0.0199   0.0322  -0.0071  -0.0131   0.0158  -0.00    0.0      6
2022/02/12 23:05:50.00  -22.122190522  -51.407078218   439.1369   5   0   0.0144   0.0198   0.0320  -0.0071  -0.0131   0.0157  -0.00    0.0      6
2022/02/12 23:05:51.00  -22.122190510  -51.407078208   439.1394   5   0   0.0144   0.0198   0.0319  -0.0071  -0.0131   0.0157  -0.00    0.0      6
2022/02/12 23:05:52.00  -22.122190503  -51.407078199   439.1411   5   0   0.0143   0.0197   0.0318  -0.0071  -0.0131   0.0156  -0.00    0.0      6
2022/02/12 23:05:53.00  -22.122190491  -51.407078187   439.1437   5   0   0.0143   0.0197   0.0317  -0.0071  -0.0130   0.0156  -0.00    0.0      6
2022/02/12 23:05:54.00  -22.122190480  -51.407078177   439.1459   5   0   0.0142   0.0196   0.0316  -0.0071  -0.0130   0.0156  -0.00    0.0      6
2022/02/12 23:05:55.00  -22.122190470  -51.407078171   439.1488   5   0   0.0142   0.0196   0.0315  -0.0071  -0.0130   0.0155  -0.00    0.0      6
2022/02/12 23:05:56.00  -22.122190462  -51.407078167   439.1511   5   0   0.0141   0.0195   0.0314  -0.0071  -0.0130   0.0155  -0.00    0.0      6
2022/02/12 23:05:57.00  -22.122190457  -51.407078162   439.1531   5   0   0.0141   0.0195   0.0313  -0.0071  -0.0129   0.0154  -0.00    0.0      6
2022/02/12 23:05:58.00  -22.122190449  -51.407078157   439.1558   5   0   0.0140   0.0194   0.0312  -0.0071  -0.0129   0.0154  -0.00    0.0      6
2022/02/12 23:05:59.00  -22.122190443  -51.407078153   439.1582   5   0   0.0140   0.0194   0.0310  -0.0070  -0.0129   0.0153  -0.00    0.0      6
2022/02/12 23:06:00.00  -22.122190436  -51.407078151   439.1604   5   0   0.0139   0.0193   0.0309  -0.0070  -0.0128   0.0153  -0.00    0.0      6
2022/02/12 23:06:01.00  -22.122190429  -51.407078149   439.1625   5   0   0.0139   0.0193   0.0308  -0.0070  -0.0128   0.0152  -0.00    0.0      6
2022/02/12 23:06:02.00  -22.122190425  -51.407078143   439.1642   5   0   0.0138   0.0193   0.0307  -0.0070  -0.0128   0.0152  -0.00    0.0      6
2022/02/12 23:06:03.00  -22.122190420  -51.407078133   439.1664   5   0   0.0138   0.0192   0.0306  -0.0070  -0.0128   0.0151  -0.00    0.0      6
2022/02/12 23:06:04.00  -22.122190413  -51.407078125   439.1691   5   0   0.0138   0.0192   0.0305  -0.0070  -0.0127   0.0151  -0.00    0.0      6
2022/02/12 23:06:05.00  -22.122190407  -51.407078115   439.1708   5   0   0.0137   0.0191   0.0304  -0.0070  -0.0127   0.0151  -0.00    0.0      6
2022/02/12 23:06:06.00  -22.122190402  -51.407078107   439.1726   5   0   0.0137   0.0191   0.0303  -0.0070  -0.0127   0.0150  -0.00    0.0      6
2022/02/12 23:06:07.00  -22.122190397  -51.407078098   439.1741   5   0   0.0136   0.0190   0.0302  -0.0070  -0.0127   0.0150  -0.00    0.0      6
2022/02/12 23:06:08.00  -22.122190394  -51.407078094   439.1759   5   0   0.0136   0.0190   0.0301  -0.0070  -0.0126   0.0149  -0.00    0.0      6
2022/02/12 23:06:09.00  -22.122190391  -51.407078090   439.1777   5   0   0.0135   0.0190   0.0300  -0.0070  -0.0126   0.0149  -0.00    0.0      6
2022/02/12 23:06:10.00  -22.122190388  -51.407078085   439.1798   5   0   0.0135   0.0189   0.0299  -0.0070  -0.0126   0.0148  -0.00    0.0      6
2022/02/12 23:06:11.00  -22.122190381  -51.407078084   439.1815   5   0   0.0135   0.0189   0.0298  -0.0070  -0.0126   0.0148  -0.00    0.0      6
2022/02/12 23:06:12.00  -22.122190379  -51.407078082   439.1833   5   0   0.0134   0.0188   0.0297  -0.0070  -0.0125   0.0148  -0.00    0.0      6
2022/02/12 23:06:13.00  -22.122190375  -51.407078077   439.1850   5   0   0.0134   0.0188   0.0296  -0.0070  -0.0125   0.0147  -0.00    0.0      6
2022/02/12 23:06:14.00  -22.122190369  -51.407078078   439.1873   5   0   0.0133   0.0187   0.0295  -0.0069  -0.0125   0.0147  -0.00    0.0      6
2022/02/12 23:06:15.00  -22.122190364  -51.407078076   439.1888   5   0   0.0133   0.0187   0.0294  -0.0069  -0.0125   0.0146  -0.00    0.0      6
2022/02/12 23:06:16.00  -22.122190361  -51.407078075   439.1904   5   0   0.0133   0.0187   0.0293  -0.0069  -0.0124   0.0146  -0.00    0.0      6
2022/02/12 23:06:17.00  -22.122190356  -51.407078078   439.1924   5   0   0.0132   0.0186   0.0292  -0.0069  -0.0124   0.0146  -0.00    0.0      6
2022/02/12 23:06:18.00  -22.122190352  -51.407078076   439.1946   5   0   0.0132   0.0186   0.0291  -0.0069  -0.0124   0.0145  -0.00    0.0      6
2022/02/12 23:06:19.00  -22.122190346  -51.407078074   439.1965   5   0   0.0131   0.0185   0.0290  -0.0069  -0.0124   0.0145  -0.00    0.0      6
2022/02/12 23:06:20.00  -22.122190340  -51.407078078   439.1986   5   0   0.0131   0.0185   0.0289  -0.0069  -0.0123   0.0144  -0.00    0.0      6
2022/02/12 23:06:21.00  -22.122190337  -51.407078079   439.2010   5   0   0.0131   0.0184   0.0288  -0.0069  -0.0123   0.0144  -0.00    0.0      6
2022/02/12 23:06:22.00  -22.122190333  -51.407078080   439.2031   5   0   0.0130   0.0184   0.0287  -0.0069  -0.0123   0.0144  -0.00    0.0      6
2022/02/12 23:06:23.00  -22.122190327  -51.407078082   439.2051   5   0   0.0130   0.0184   0.0286  -0.0069  -0.0123   0.0143  -0.00    0.0      6
2022/02/12 23:06:24.00  -22.122190324  -51.407078085   439.2062   5   0   0.0129   0.0183   0.0286  -0.0069  -0.0122   0.0143  -0.00    0.0      6
2022/02/12 23:06:25.00  -22.122190318  -51.407078083   439.2079   5   0   0.0129   0.0183   0.0285  -0.0069  -0.0122   0.0142  -0.00    0.0      6
2022/02/12 23:06:26.00  -22.122190314  -51.407078086   439.2087   5   0   0.0129   0.0182   0.0284  -0.0069  -0.0122   0.0142  -0.00    0.0      6
2022/02/12 23:06:27.00  -22.122190312  -51.407078085   439.2100   5   0   0.0128   0.0182   0.0283  -0.0069  -0.0122   0.0142  -0.00    0.0      6
2022/02/12 23:06:28.00  -22.122190307  -51.407078085   439.2120   5   0   0.0128   0.0182   0.0282  -0.0068  -0.0122   0.0141  -0.00    0.0      6
2022/02/12 23:06:29.00  -22.122190302  -51.407078085   439.2132   5   0   0.0127   0.0181   0.0281  -0.0068  -0.0121   0.0141  -0.00    0.0      6
2022/02/12 23:06:30.00  -22.122190298  -51.407078087   439.2147   5   0   0.0127   0.0181   0.0280  -0.0068  -0.0121   0.0140  -0.00    0.0      6
2022/02/12 23:06:31.00  -22.122190295  -51.407078088   439.2161   5   0   0.0127   0.0180   0.0279  -0.0068  -0.0121   0.0140  -0.00    0.0      6
2022/02/12 23:06:32.00  -22.122190290  -51.407078088   439.2175   5   0   0.0126   0.0180   0.0278  -0.0068  -0.0121   0.0140  -0.00    0.0      6
2022/02/12 23:06:33.00  -22.122190289  -51.407078090   439.2180   5   0   0.0126   0.0180   0.0277  -0.0068  -0.0120   0.0139  -0.00    0.0      6
2022/02/12 23:06:34.00  -22.122190284  -51.407078094   439.2192   5   0   0.0126   0.0179   0.0277  -0.0068  -0.0120   0.0139  -0.00    0.0      6
2022/02/12 23:06:35.00  -22.122190279  -51.407078090   439.2207   5   0   0.0125   0.0179   0.0276  -0.0068  -0.0120   0.0138  -0.00    0.0      6
2022/02/12 23:06:36.00  -22.122190276  -51.407078088   439.2220   5   0   0.0125   0.0179   0.0275  -0.0068  -0.0120   0.0138  -0.00    0.0      6
2022/02/12 23:06:37.00  -22.122190273  -51.407078087   439.2234   5   0   0.0124   0.0178   0.0274  -0.0068  -0.0119   0.0138  -0.00    0.0      6
2022/02/12 23:06:38.00  -22.122190266  -51.407078088   439.2262   5   0   0.0124   0.0178   0.0273  -0.0068  -0.0119   0.0137  -0.00    0.0      6
2022/02/12 23:06:39.00  -22.122190261  -51.407078088   439.2281   5   0   0.0124   0.0177   0.0272  -0.0068  -0.0119   0.0137  -0.00    0.0      6
2022/02/12 23:06:40.00  -22.122190256  -51.407078084   439.2294   5   0   0.0123   0.0177   0.0271  -0.0068  -0.0119   0.0137  -0.00    0.0      6
2022/02/12 23:06:41.00  -22.122190257  -51.407078082   439.2305   5   0   0.0123   0.0177   0.0271  -0.0067  -0.0119   0.0136  -0.00    0.0      6
2022/02/12 23:06:42.00  -22.122190254  -51.407078084   439.2322   5   0   0.0123   0.0176   0.0270  -0.0067  -0.0118   0.0136  -0.00    0.0      6
2022/02/12 23:06:43.00  -22.122190252  -51.407078079   439.2337   5   0   0.0122   0.0176   0.0269  -0.0067  -0.0118   0.0136  -0.00    0.0      6
2022/02/12 23:06:44.00  -22.122190248  -51.407078081   439.2346   5   0   0.0122   0.0176   0.0268  -0.0067  -0.0118   0.0135  -0.00    0.0      6
2022/02/12 23:06:45.00  -22.122190245  -51.407078079   439.2359   5   0   0.0122   0.0175   0.0267  -0.0067  -0.0118   0.0135  -0.00    0.0      6
2022/02/12 23:06:46.00  -22.122190243  -51.407078078   439.2375   5   0   0.0121   0.0175   0.0266  -0.0067  -0.0117   0.0134  -0.00    0.0      6
2022/02/12 23:06:47.00  -22.122190237  -51.407078079   439.2385   5   0   0.0121   0.0174   0.0266  -0.0067  -0.0117   0.0134  -0.00    0.0      6
2022/02/12 23:06:48.00  -22.122190233  -51.407078080   439.2394   5   0   0.0121   0.0174   0.0265  -0.0067  -0.0117   0.0134  -0.00    0.0      6
2022/02/12 23:06:49.00  -22.122190228  -51.407078079   439.2406   5   0   0.0120   0.0174   0.0264  -0.0067  -0.0117   0.0133  -0.00    0.0      6
2022/02/12 23:06:50.00  -22.122190223  -51.407078083   439.2416   5   0   0.0120   0.0173   0.0263  -0.0067  -0.0117   0.0133  -0.00    0.0      6
2022/02/12 23:06:51.00  -22.122190217  -51.407078083   439.2420   5   0   0.0119   0.0173   0.0262  -0.0067  -0.0116   0.0133  -0.00    0.0      6
2022/02/12 23:06:52.00  -22.122190212  -51.407078084   439.2426   5   0   0.0119   0.0173   0.0262  -0.0067  -0.0116   0.0132  -0.00    0.0      6
2022/02/12 23:06:53.00  -22.122190207  -51.407078086   439.2435   5   0   0.0119   0.0172   0.0261  -0.0067  -0.0116   0.0132  -0.00    0.0      6
2022/02/12 23:06:54.00  -22.122190204  -51.407078087   439.2435   5   0   0.0118   0.0172   0.0260  -0.0066  -0.0116   0.0132  -0.00    0.0      6
2022/02/12 23:06:55.00  -22.122190206  -51.407078089   439.2435   5   0   0.0118   0.0172   0.0259  -0.0066  -0.0115   0.0131  -0.00    0.0      6
2022/02/12 23:06:56.00  -22.122190202  -51.407078090   439.2444   5   0   0.0118   0.0171   0.0258  -0.0066  -0.0115   0.0131  -0.00    0.0      6
2022/02/12 23:06:57.00  -22.122190197  -51.407078090   439.2451   5   0   0.0117   0.0171   0.0258  -0.0066  -0.0115   0.0131  -0.00    0.0      6
2022/02/12 23:06:58.00  -22.122190196  -51.407078088   439.2459   5   0   0.0117   0.0170   0.0257  -0.0066  -0.0115   0.0130  -0.00    0.0      6
2022/02/12 23:06:59.00  -22.122190193  -51.407078089   439.2463   5   0   0.0117   0.0170   0.0256  -0.0066  -0.0115   0.0130  -0.00    0.0      6
2022/02/12 23:07:00.00  -22.122190191  -51.407078092   439.2467   5   0   0.0117   0.0170   0.0255  -0.0066  -0.0114   0.0130  -0.00    0.0      6
2022/02/12 23:07:01.00  -22.122190188  -51.407078091   439.2478   5   0   0.0116   0.0169   0.0255  -0.0066  -0.0114   0.0129  -0.00    0.0      6
2022/02/12 23:07:02.00  -22.122190186  -51.407078092   439.2478   5   0   0.0116   0.0169   0.0254  -0.0066  -0.0114   0.0129  -0.00    0.0      6
